[
  {
    "name": "Quirno, Martin, MD",
    "address": "281 Broadway 2nd Floor New York, NY 10007",
    "phone": "(646) 596-7386",
    "Type": "Medical",
    "lat": "40.71495",
    "long": "-74.00687"
  },
  {
    "name": "Friedlander, Richard Paul, MD",
    "address": "281 Broadway 2nd Floor New York, NY 10007",
    "phone": "(212) 772-3111",
    "Type": "Medical",
    "lat": "40.71495",
    "long": "-74.00687"
  },
  {
    "name": "Palvia, Tanuj P., MD",
    "address": "281 Broadway Suite 2F New York, NY 10007",
    "phone": "(646) 596-7386",
    "Type": "Medical",
    "lat": "40.71495",
    "long": "-74.00687"
  },
  {
    "name": "Jean-Pierre, Patrick Duclos, MD",
    "address": "281 Broadway 2nd Floor New York, NY 10007",
    "phone": "(646) 596-7386",
    "Type": "Medical",
    "lat": "40.71495",
    "long": "-74.00687"
  },
  {
    "name": "Wert, Matthew A., MD",
    "address": "281 Broadway 2nd Floor New York, NY 10007",
    "phone": "(646) 596-7386",
    "Type": "Medical",
    "lat": "40.71495",
    "long": "-74.00687"
  },
  {
    "name": "Cortes, Raul A., MD",
    "address": "281 Broadway 2nd Floor New York, NY 10007",
    "phone": "(646) 596-7386",
    "Type": "Medical",
    "lat": "40.71495",
    "long": "-74.00687"
  },
  {
    "name": "Ravitz, Risa M., MD",
    "address": "281 Broadway 2nd Floor New York, NY 10007",
    "phone": "(646) 596-7386",
    "Type": "Medical",
    "lat": "40.71495",
    "long": "-74.00687"
  },
  {
    "name": "Kero, Danijela, DO",
    "address": "15 Warren Street New York, NY 10007",
    "phone": "(212) 226-7666",
    "Type": "Medical",
    "lat": "40.71388",
    "long": "-74.007576"
  },
  {
    "name": "Ibrahim, Nadwa, MD",
    "address": "15 Warren Street New York, NY 10007",
    "phone": "(212) 226-7666",
    "Type": "Medical",
    "lat": "40.71388",
    "long": "-74.007576"
  },
  {
    "name": "Schulwolf, Lauren B., MD",
    "address": "15 Warren Street New York, NY 10007",
    "phone": "(212) 226-7666",
    "Type": "Medical",
    "lat": "40.71388",
    "long": "-74.007576"
  },
  {
    "name": "Kollander, Steven A., DDS",
    "address": "6083 Myrtle Avenue Ridgewood, NY 11385",
    "phone": "(718) 497-2700",
    "Type": "Dental",
    "lat": "40.70095",
    "long": "-73.89527"
  },
  {
    "name": "Soliman, John, DDS",
    "address": "2130 Hwy. 35 Suite 112 Sea Girt, NJ 08750",
    "phone": "(732) 974-0680",
    "Type": "Dental",
    "lat": "40.141532",
    "long": "-74.0603"
  },
  {
    "name": "Soliman, John, DDS",
    "address": "9 Hospital Drive Suite 6 Toms River, NJ 08755",
    "phone": "(732) 286-1199",
    "Type": "Dental",
    "lat": "39.96246",
    "long": "-74.21646"
  },
  {
    "name": "Scott, Franklyn, DDS",
    "address": "400 North Buckstown Road Suite 2A Langhorne, PA 19047",
    "phone": "(215) 750-0200",
    "Type": "Dental",
    "lat": "40.186779",
    "long": "-74.869609"
  }
]